[{"district":"Adilabad","state":"Andhra Pradesh","latitude":19.300265396150905,"longitude":78.87046790416002},{"district":"Agra","state":"Uttar Pradesh","latitude":27.074989480779475,"longitude":78.13836533651526},{"district":"Ahmadabad","state":"Gujarat","latitude":22.740060207461937,"longitude":72.22530709614898},{"district":"Ahmadnagar","state":"Maharashtra","latitude":19.159232423592044,"longitude":74.60452596843061},{"district":"Aizawl","state":"Mizoram","latitude":23.84140014755367,"longitude":92.91511246806247},{"district":"Ajmer","state":"Rajasthan","latitude":26.31381449973204,"longitude":74.63081026276575},{"district":"Akola","state":"Maharashtra","latitude":20.762082652670305,"longitude":77.15466009646316},{"district":"Alappuzha","state":"Kerala","latitude":9.487389333414159,"longitude":76.48715506113014},{"district":"Aligarh","state":"Uttar Pradesh","latitude":27.873478501193603,"longitude":78.0500012606575},{"district":"Alirajpur","state":"Madhya Pradesh","latitude":22.284659816473976,"longitude":74.38867532137195},{"district":"Allahabad","state":"Uttar Pradesh","latitude":25.279349154387887,"longitude":81.93671308700638},{"district":"Almora","state":"Uttarakhand","latitude":29.70434044608362,"longitude":79.5546739159443},{"district":"Alwar","state":"Rajasthan","latitude":27.63871509339947,"longitude":76.66720530316556},{"district":"Ambala","state":"Haryana","latitude":30.323005692788215,"longitude":76.87869605476334},{"district":"Ambedkar Nagar","state":"Uttar Pradesh","latitude":26.40641609053087,"longitude":82.67797131902384},{"district":"Amravati","state":"Maharashtra","latitude":21.15447679641699,"longitude":77.53885564110887},{"district":"Amreli","state":"Gujarat","latitude":21.36639623829671,"longitude":71.37187675007749},{"district":"Amritsar","state":"Punjab","latitude":31.767861478027456,"longitude":74.94546599315032},{"district":"Anand","state":"Gujarat","latitude":22.442333544291174,"longitude":72.78171866749724},{"district":"Anantapur","state":"Andhra Pradesh","latitude":14.457534433144618,"longitude":77.61593446391902},{"district":"Anantnag","state":"Jammu & Kashmir","latitude":33.79160182727228,"longitude":75.38188049128675},{"district":"Anjaw","state":"Arunanchal Pradesh","latitude":28.037946782344235,"longitude":96.84595645945014},{"district":"Anugul","state":"Odisha","latitude":21.102669728181745,"longitude":84.83078957153432},{"district":"Anuppur","state":"Madhya Pradesh","latitude":23.034131005327904,"longitude":81.66123972006072},{"district":"Araria","state":"Bihar","latitude":26.264704560839366,"longitude":87.36771846179434},{"district":"Ariyalur","state":"Tamil Nadu","latitude":11.151319868067723,"longitude":79.22641902354542},{"district":"Ashoknagar","state":"Madhya Pradesh","latitude":24.61867481291302,"longitude":77.87567297967678},{"district":"Auraiya","state":"Uttar Pradesh","latitude":26.655138500950677,"longitude":79.49364331520908},{"district":"Aurangabad","state":"Bihar","latitude":24.804635760587786,"longitude":84.37721879961455},{"district":"Aurangabad","state":"Maharashtra","latitude":20.024411263797226,"longitude":75.24300069920932},{"district":"Azamgarh","state":"Uttar Pradesh","latitude":26.043203448345345,"longitude":83.08838811193739},{"district":"Badgam","state":"Jammu & Kashmir","latitude":33.8653769032023,"longitude":74.6618760043601},{"district":"Bagalkot","state":"Karnataka","latitude":16.29041933167464,"longitude":75.66378343566467},{"district":"Bageshwar","state":"Uttarakhand","latitude":29.99982378758537,"longitude":79.81537220953703},{"district":"Baghpat","state":"Uttar Pradesh","latitude":29.036445453260782,"longitude":77.32009558106375},{"district":"Bahraich","state":"Uttar Pradesh","latitude":27.731433917563237,"longitude":81.40370481821668},{"district":"Baksa","state":"Assam","latitude":26.647713732828645,"longitude":91.30482244021665},{"district":"Balaghat","state":"Madhya Pradesh","latitude":21.858787599412665,"longitude":80.2797247416967},{"district":"Balangir","state":"Odisha","latitude":20.608713295000264,"longitude":83.18225342576329},{"district":"Baleshwar","state":"Odisha","latitude":21.3760951596787,"longitude":86.92384843290742},{"district":"Ballia","state":"Uttar Pradesh","latitude":25.875766532055053,"longitude":84.15815999665733},{"district":"Balrampur","state":"Uttar Pradesh","latitude":27.448964344898364,"longitude":82.3956246558891},{"district":"Banas Kantha","state":"Gujarat","latitude":24.26988739132572,"longitude":72.14470565247419},{"district":"Banda","state":"Uttar Pradesh","latitude":25.443449945230235,"longitude":80.57185220535595},{"district":"Bandipore","state":"Jammu & Kashmir","latitude":34.589056503359075,"longitude":74.89963514473322},{"district":"Bangalore Rural","state":"Karnataka","latitude":12.925525521015677,"longitude":77.57464501356833},{"district":"Bangalore","state":"Karnataka","latitude":12.944267627671326,"longitude":77.58303159052434},{"district":"Banka","state":"Bihar","latitude":24.831715070940845,"longitude":86.83095397544596},{"district":"Bankura","state":"West Bengal","latitude":23.13315951355669,"longitude":87.18830360630263},{"district":"Banswara","state":"Rajasthan","latitude":23.492441911056442,"longitude":74.36698370487406},{"district":"Bara Banki","state":"Uttar Pradesh","latitude":26.93894282155576,"longitude":81.32996759467255},{"district":"Bargarh","state":"Odisha","latitude":21.234246714663833,"longitude":83.27670795883583},{"district":"Baramula","state":"Jammu & Kashmir","latitude":34.128399555607785,"longitude":74.4220786898821},{"district":"Baran","state":"Rajasthan","latitude":24.918286808667553,"longitude":76.82091742079055},{"district":"Barddhaman","state":"West Bengal","latitude":23.407777582910885,"longitude":87.60813291534205},{"district":"Bareilly","state":"Uttar Pradesh","latitude":28.453450916304828,"longitude":79.3787588171225},{"district":"Barmer","state":"Rajasthan","latitude":25.581178635193154,"longitude":71.46719185253397},{"district":"Barnala","state":"Punjab","latitude":30.386388038195584,"longitude":75.49207347714845},{"district":"Barpeta","state":"Assam","latitude":26.37666831391477,"longitude":90.98331772916048},{"district":"Barwani","state":"Madhya Pradesh","latitude":21.75195153363648,"longitude":75.03112019177703},{"district":"Bastar","state":"Chhattisgarh","latitude":19.44364232836874,"longitude":81.77045439499035},{"district":"Basti","state":"Uttar Pradesh","latitude":26.83167881576341,"longitude":82.60326339227137},{"district":"Bathinda","state":"Punjab","latitude":30.178057102963898,"longitude":75.00514722849204},{"district":"Bauda","state":"Odisha","latitude":20.64456304883921,"longitude":84.18428920274299},{"district":"Begusarai","state":"Bihar","latitude":25.51302659161218,"longitude":86.1258053966005},{"district":"Belgaum","state":"Karnataka","latitude":16.157548197909676,"longitude":74.77487219034819},{"district":"Bellary","state":"Karnataka","latitude":15.197651359734436,"longitude":76.41738606108788},{"district":"Betul","state":"Madhya Pradesh","latitude":21.87963721590775,"longitude":77.77925056897831},{"district":"Bhadrak","state":"Odisha","latitude":20.986847213462198,"longitude":86.62754644257598},{"district":"Bhagalpur","state":"Bihar","latitude":25.281890993914644,"longitude":87.0963416033241},{"district":"Bhandara","state":"Maharashtra","latitude":21.12109664483976,"longitude":79.76816658007823},{"district":"Bharatpur","state":"Rajasthan","latitude":27.261680061368892,"longitude":77.32223444045651},{"district":"Bharuch","state":"Gujarat","latitude":21.833790514713343,"longitude":73.00328521501339},{"district":"Bhavnagar","state":"Gujarat","latitude":21.673749035305164,"longitude":71.87814113496867},{"district":"Bhilwara","state":"Rajasthan","latitude":25.48832656545682,"longitude":74.73844749838062},{"district":"Bhind","state":"Madhya Pradesh","latitude":26.349631920944095,"longitude":78.67715783350314},{"district":"Bhiwani","state":"Haryana","latitude":28.73018430110447,"longitude":75.9710874517622},{"district":"Bhojpur","state":"Bihar","latitude":25.449418228539777,"longitude":84.56462758413969},{"district":"Bhopal","state":"Madhya Pradesh","latitude":23.492623762886836,"longitude":77.4101529665495},{"district":"Bid","state":"Maharashtra","latitude":18.947310161088797,"longitude":75.77490288360438},{"district":"Bidar","state":"Karnataka","latitude":18.03008467339324,"longitude":77.1747406004365},{"district":"Bijapur","state":"Chhattisgarh","latitude":18.771740540242956,"longitude":80.74032122125314},{"district":"Bijapur","state":"Karnataka","latitude":16.814278238059853,"longitude":75.90206266625555},{"district":"Bijnor","state":"Uttar Pradesh","latitude":29.40992207441142,"longitude":78.46441733301526},{"district":"Bikaner","state":"Rajasthan","latitude":28.119146852542695,"longitude":73.12835305623928},{"district":"Bilaspur","state":"Chhattisgarh","latitude":22.413616206570637,"longitude":81.97951723011212},{"district":"Bilaspur","state":"Himachal Pradesh","latitude":31.404404828414673,"longitude":76.66071171518593},{"district":"Birbhum","state":"West Bengal","latitude":24.06173532650112,"longitude":87.55875889633066},{"district":"Bishnupur","state":"Manipur","latitude":24.511375764638295,"longitude":93.80025425212173},{"district":"Bokaro","state":"Jharkhand","latitude":23.694939524191234,"longitude":86.01437082217737},{"district":"Bongaigaon","state":"Assam","latitude":26.35799201544367,"longitude":90.62162641078567},{"district":"Budaun","state":"Uttar Pradesh","latitude":28.06696522077889,"longitude":78.89301165536187},{"district":"Bulandshahr","state":"Uttar Pradesh","latitude":28.391223151392197,"longitude":78.06207141144851},{"district":"Buldana","state":"Maharashtra","latitude":20.563583638749705,"longitude":76.37800507039913},{"district":"Bundi","state":"Rajasthan","latitude":25.439016561823006,"longitude":75.795079965213},{"district":"Burhanpur","state":"Madhya Pradesh","latitude":21.33540745242489,"longitude":76.37120849891272},{"district":"Buxar","state":"Bihar","latitude":25.504404427830103,"longitude":84.08361062206075},{"district":"Cachar","state":"Assam","latitude":24.75821679079462,"longitude":92.84130438690357},{"district":"Central","state":"NCT of Delhi","latitude":28.64146176069307,"longitude":77.2206008388026},{"district":"Chamba","state":"Himachal Pradesh","latitude":32.69400696201542,"longitude":76.34365881168398},{"district":"Chamoli","state":"Uttarakhand","latitude":30.50061241148412,"longitude":79.5924004930765},{"district":"Champawat","state":"Uttarakhand","latitude":29.28925479081023,"longitude":80.05919369237782},{"district":"Champhai","state":"Mizoram","latitude":23.541986846014765,"longitude":93.22770704118125},{"district":"Chamrajnagar","state":"Karnataka","latitude":11.947491348869537,"longitude":77.09186141084457},{"district":"Chandauli","state":"Uttar Pradesh","latitude":25.123212964085845,"longitude":83.28377621180456},{"district":"Chandel","state":"Manipur","latitude":24.235991532776833,"longitude":94.07358911709643},{"district":"Chandigarh","state":"Chandigarh","latitude":30.73038580389116,"longitude":76.77666675399797},{"district":"Chandrapur","state":"Maharashtra","latitude":20.095839069047678,"longitude":79.3985368396491},{"district":"Changlang","state":"Arunanchal Pradesh","latitude":27.268189650963368,"longitude":96.40155779860953},{"district":"Chatra","state":"Jharkhand","latitude":24.103818492975048,"longitude":84.8984235619711},{"district":"Chennai","state":"Tamil Nadu","latitude":13.066032041715918,"longitude":80.25328660085216},{"district":"Chhatarpur","state":"Madhya Pradesh","latitude":24.761400583944024,"longitude":79.71028559330301},{"district":"Chhindwara","state":"Madhya Pradesh","latitude":22.139025673850057,"longitude":78.82888418743116},{"district":"Chikkaballapura","state":"Karnataka","latitude":13.588353465473485,"longitude":77.78537160767328},{"district":"Chikmagalur","state":"Karnataka","latitude":13.407254202287845,"longitude":75.72209412739406},{"district":"Chirang","state":"Assam","latitude":26.651135380643147,"longitude":90.65643347131994},{"district":"Chitradurga","state":"Karnataka","latitude":14.304912534646068,"longitude":76.5254061480131},{"district":"Chitrakoot","state":"Uttar Pradesh","latitude":25.216416126383205,"longitude":81.12655418159248},{"district":"Chittaurgarh","state":"Rajasthan","latitude":24.719518785818323,"longitude":74.96422318823926},{"district":"Chittoor","state":"Andhra Pradesh","latitude":13.308130351074418,"longitude":79.05982440430802},{"district":"Churachandpur","state":"Manipur","latitude":24.277247553719032,"longitude":93.42642646669529},{"district":"Churu","state":"Rajasthan","latitude":28.204568245081635,"longitude":74.7663770387405},{"district":"Coimbatore","state":"Tamil Nadu","latitude":10.811215402499379,"longitude":76.97829327831236},{"district":"Cuddalore","state":"Tamil Nadu","latitude":11.526362434036757,"longitude":79.34499765759455},{"district":"Y.s.r.","state":"Andhra Pradesh","latitude":14.480263225170802,"longitude":78.7098222580097},{"district":"Cuttack","state":"Odisha","latitude":20.331302820326428,"longitude":85.64318172642203},{"district":"Dadra & Nagar Haveli","state":"Dadara & Nagar Havelli","latitude":20.20639058664557,"longitude":73.06549993813822},{"district":"Dakshin Bastar Dantewada","state":"Chhattisgarh","latitude":18.5632384474912,"longitude":81.44270603062424},{"district":"Dakshin Dinajpur","state":"West Bengal","latitude":25.379603626489768,"longitude":88.5989632554022},{"district":"Dakshina Kannada","state":"Karnataka","latitude":13.063876112231995,"longitude":75.17006353820992},{"district":"Daman","state":"Daman & Diu","latitude":20.421587934956037,"longitude":72.85264432868479},{"district":"Damoh","state":"Madhya Pradesh","latitude":23.79644340002942,"longitude":79.50660651169576},{"district":"Darbhanga","state":"Bihar","latitude":26.157387321752097,"longitude":86.0401071333475},{"district":"Darjiling","state":"West Bengal","latitude":26.833357013093504,"longitude":88.43838717234956},{"district":"Darrang","state":"Assam","latitude":26.43765243602641,"longitude":92.06710828087749},{"district":"Data Not Available","state":"Jammu & Kashmir","latitude":34.91806914274309,"longitude":75.00803108152357},{"district":"Datia","state":"Madhya Pradesh","latitude":25.918013573208988,"longitude":78.53025228701526},{"district":"Davanagere","state":"Karnataka","latitude":14.367209543696614,"longitude":75.96713206485552},{"district":"Debagarh","state":"Odisha","latitude":21.436545509518908,"longitude":84.8476213501109},{"district":"Dehradun","state":"Uttarakhand","latitude":30.45873443105647,"longitude":77.94376859632388},{"district":"Deoghar","state":"Jharkhand","latitude":24.332606261299077,"longitude":86.76479951736451},{"district":"Deoria","state":"Uttar Pradesh","latitude":26.423909496061995,"longitude":83.83521144474062},{"district":"Dewas","state":"Madhya Pradesh","latitude":22.806857806498684,"longitude":76.51382226283766},{"district":"Dhalai","state":"Tripura","latitude":23.826197514414943,"longitude":91.96213109800377},{"district":"Dhamtari","state":"Chhattisgarh","latitude":20.535143907715476,"longitude":81.79335711617941},{"district":"Dhanbad","state":"Jharkhand","latitude":23.840639508632655,"longitude":86.47001865614783},{"district":"Dhar","state":"Madhya Pradesh","latitude":22.578221724743486,"longitude":75.09294735283211},{"district":"Dharmapuri","state":"Tamil Nadu","latitude":12.142812670228622,"longitude":78.21111140046112},{"district":"Dharwad","state":"Karnataka","latitude":15.369925995435512,"longitude":75.14170902597303},{"district":"Dhaulpur","state":"Rajasthan","latitude":26.65410812859072,"longitude":77.74895231945084},{"district":"Dhemaji","state":"Assam","latitude":27.545216228305364,"longitude":94.8656222012174},{"district":"Dhenkanal","state":"Odisha","latitude":20.835260593929654,"longitude":85.45402403062191},{"district":"Dhubri","state":"Assam","latitude":25.930547509495526,"longitude":90.09188413166521},{"district":"Dhule","state":"Maharashtra","latitude":21.13195695084149,"longitude":74.52832567326429},{"district":"Dibang Valley","state":"Arunanchal Pradesh","latitude":28.9678697890199,"longitude":95.93291128497813},{"district":"Dibrugarh","state":"Assam","latitude":27.40089237901617,"longitude":95.03102395203236},{"district":"Dindigul","state":"Tamil Nadu","latitude":10.425952998533285,"longitude":77.80267309414305},{"district":"Dindori","state":"Madhya Pradesh","latitude":22.90596902485774,"longitude":81.10959527473784},{"district":"Diu","state":"Daman & Diu","latitude":20.735488899884096,"longitude":71.0150012898686},{"district":"Doda","state":"Jammu & Kashmir","latitude":33.12638862539906,"longitude":75.70157623485407},{"district":"Dohad","state":"Gujarat","latitude":22.917635069185195,"longitude":74.13776634657874},{"district":"Dumka","state":"Jharkhand","latitude":24.311922525274753,"longitude":87.29340437200909},{"district":"Dungarpur","state":"Rajasthan","latitude":23.676736487468336,"longitude":73.87056129032891},{"district":"Durg","state":"Chhattisgarh","latitude":21.20107767906341,"longitude":81.37408980302783},{"district":"Dimapur","state":"Nagaland","latitude":25.80376118767671,"longitude":93.77144227627733},{"district":"East","state":"NCT of Delhi","latitude":28.62532034168997,"longitude":77.29909899148794},{"district":"East","state":"Sikkim","latitude":27.279880349278983,"longitude":88.68679604047256},{"district":"East Garo Hills","state":"Meghalaya","latitude":25.71498629517166,"longitude":90.5737093345996},{"district":"East Godavari","state":"Andhra Pradesh","latitude":17.16061655096155,"longitude":82.05549692649643},{"district":"East Kameng","state":"Arunanchal Pradesh","latitude":27.445122001588622,"longitude":92.90572416549004},{"district":"East Khasi Hills","state":"Meghalaya","latitude":25.38503446861427,"longitude":91.74949904934535},{"district":"East Nimar","state":"Madhya Pradesh","latitude":21.97794003073909,"longitude":76.6229283227658},{"district":"East Siang","state":"Arunanchal Pradesh","latitude":28.15529651222132,"longitude":95.15933969248428},{"district":"Ernakulam","state":"Kerala","latitude":10.045158590297845,"longitude":76.50438034323071},{"district":"Erode","state":"Tamil Nadu","latitude":11.487519049183964,"longitude":77.38469120859014},{"district":"Etah","state":"Uttar Pradesh","latitude":27.546474840144846,"longitude":78.72760273873567},{"district":"Etawah","state":"Uttar Pradesh","latitude":26.715517672914963,"longitude":79.0420276234201},{"district":"Faizabad","state":"Uttar Pradesh","latitude":26.66300553704952,"longitude":82.01140442647844},{"district":"Faridabad","state":"Haryana","latitude":28.331981731914084,"longitude":77.35088116801968},{"district":"Faridkot","state":"Punjab","latitude":30.598773893452815,"longitude":74.76306184235318},{"district":"Farrukhabad","state":"Uttar Pradesh","latitude":27.436368091129907,"longitude":79.4356075158498},{"district":"Fatehabad","state":"Haryana","latitude":29.53588325936081,"longitude":75.59165919406239},{"district":"Fatehgarh Sahib","state":"Punjab","latitude":30.64375989232299,"longitude":76.33549297389925},{"district":"Fatehpur","state":"Uttar Pradesh","latitude":25.83327461968399,"longitude":80.77617306258564},{"district":"Firozabad","state":"Uttar Pradesh","latitude":27.19348115310473,"longitude":78.51552796198533},{"district":"Firozpur","state":"Punjab","latitude":30.55436570958745,"longitude":74.49965392758952},{"district":"Gadag","state":"Karnataka","latitude":15.41512518252586,"longitude":75.66016253192092},{"district":"Gajapati","state":"Odisha","latitude":19.194391048292914,"longitude":84.12195948280623},{"district":"Ganderbal","state":"Jammu & Kashmir","latitude":34.311996831605626,"longitude":75.19204114230048},{"district":"Gandhinagar","state":"Gujarat","latitude":23.279992180910828,"longitude":72.68352856190798},{"district":"Ganganagar","state":"Rajasthan","latitude":29.45511258393585,"longitude":73.47713349986074},{"district":"Ganjam","state":"Odisha","latitude":19.632640698778538,"longitude":84.65877116947524},{"district":"Garhchiroli","state":"Maharashtra","latitude":19.755758610245522,"longitude":80.32168328161946},{"district":"Garhwa","state":"Jharkhand","latitude":24.050060240400416,"longitude":83.70043621172488},{"district":"Garhwal","state":"Uttarakhand","latitude":29.880652568627475,"longitude":78.71414395042095},{"district":"Gautam Buddha Nagar","state":"Uttar Pradesh","latitude":28.37865380403406,"longitude":77.5342118530356},{"district":"Gaya","state":"Bihar","latitude":24.667564278693945,"longitude":84.84516703922998},{"district":"Ghaziabad","state":"Uttar Pradesh","latitude":28.736156980888765,"longitude":77.70704963634361},{"district":"Ghazipur","state":"Uttar Pradesh","latitude":25.60018654972557,"longitude":83.51413021937864},{"district":"Giridih","state":"Jharkhand","latitude":24.33455592427613,"longitude":86.1227720742577},{"district":"Goalpara","state":"Assam","latitude":26.06257952065112,"longitude":90.61158831662806},{"district":"Godda","state":"Jharkhand","latitude":24.864732574509638,"longitude":87.2866458842414},{"district":"Golaghat","state":"Assam","latitude":26.32688843484508,"longitude":93.7343493860236},{"district":"Gonda","state":"Uttar Pradesh","latitude":27.11035243639929,"longitude":82.06198852530383},{"district":"Gondiya","state":"Maharashtra","latitude":21.1438052730278,"longitude":80.23925130897916},{"district":"Gopalganj","state":"Bihar","latitude":26.422562240428228,"longitude":84.41027121611127},{"district":"Gorakhpur","state":"Uttar Pradesh","latitude":26.679556467167558,"longitude":83.37146421481185},{"district":"Gulbarga","state":"Karnataka","latitude":17.239609350318236,"longitude":76.87934544551428},{"district":"Gumla","state":"Jharkhand","latitude":23.158709418110302,"longitude":84.52629813796702},{"district":"Guna","state":"Madhya Pradesh","latitude":24.49979890391787,"longitude":77.2705645750956},{"district":"Guntur","state":"Andhra Pradesh","latitude":16.28830902843665,"longitude":80.05309852512755},{"district":"Gurdaspur","state":"Punjab","latitude":32.0852293817238,"longitude":75.41952620748131},{"district":"Gurgaon","state":"Haryana","latitude":28.36852522061919,"longitude":76.94956597195917},{"district":"Gwalior","state":"Madhya Pradesh","latitude":25.953590711974478,"longitude":78.28175037518518},{"district":"Hailakandi","state":"Assam","latitude":24.50530639124731,"longitude":92.59927086915529},{"district":"Hamirpur","state":"Himachal Pradesh","latitude":31.657432216404075,"longitude":76.51547056779515},{"district":"Hamirpur","state":"Uttar Pradesh","latitude":25.78150345567125,"longitude":79.85662589006571},{"district":"Hanumangarh","state":"Rajasthan","latitude":29.366808971209025,"longitude":74.66252978203359},{"district":"Haora","state":"West Bengal","latitude":22.499660678819282,"longitude":88.1074251501801},{"district":"Harda","state":"Madhya Pradesh","latitude":22.244940231927238,"longitude":77.14249880061809},{"district":"Hardoi","state":"Uttar Pradesh","latitude":27.335835810561377,"longitude":80.25809732090282},{"district":"Hardwar","state":"Uttarakhand","latitude":29.8928667548029,"longitude":78.02933574898768},{"district":"Hassan","state":"Karnataka","latitude":13.029809643972769,"longitude":76.0955282208192},{"district":"Mahamaya Nagar","state":"Uttar Pradesh","latitude":27.54683550033498,"longitude":78.20348102518177},{"district":"Haveri","state":"Karnataka","latitude":14.717347663477952,"longitude":75.41893846050148},{"district":"Hazaribagh","state":"Jharkhand","latitude":24.014414557206322,"longitude":85.47624013638602},{"district":"Hingoli","state":"Maharashtra","latitude":19.54204857454241,"longitude":77.08511694477201},{"district":"Hisar","state":"Haryana","latitude":29.239646271493168,"longitude":75.78901125797162},{"district":"Hoshangabad","state":"Madhya Pradesh","latitude":22.6011998215248,"longitude":77.9519791808676},{"district":"Hoshiarpur","state":"Punjab","latitude":31.605852743452616,"longitude":75.9133273478894},{"district":"Hugli","state":"West Bengal","latitude":22.912604869019944,"longitude":88.00777752011862},{"district":"Hyderabad","state":"Andhra Pradesh","latitude":17.38866294308351,"longitude":78.4650911544936},{"district":"Idukki","state":"Kerala","latitude":9.81323739453339,"longitude":77.021847586838},{"district":"Imphal East","state":"Manipur","latitude":24.81350853735423,"longitude":93.95936661148377},{"district":"Imphal West","state":"Manipur","latitude":24.704424438795186,"longitude":93.15993218430035},{"district":"Indore","state":"Madhya Pradesh","latitude":22.711349265251762,"longitude":75.83442472708256},{"district":"Jabalpur","state":"Madhya Pradesh","latitude":23.220459575622108,"longitude":79.96780955395536},{"district":"Jagatsinghapur","state":"Odisha","latitude":20.1877415694388,"longitude":86.40044427130005},{"district":"Jaintia Hills","state":"Meghalaya","latitude":25.390559600565897,"longitude":92.39490980077196},{"district":"Jaipur","state":"Rajasthan","latitude":27.15165191283436,"longitude":75.60491388002691},{"district":"Jaisalmer","state":"Rajasthan","latitude":27.02917726974852,"longitude":70.91374820207197},{"district":"Jajapur","state":"Odisha","latitude":20.87346535860656,"longitude":86.15542768007762},{"district":"Jalandhar","state":"Punjab","latitude":31.292955258351192,"longitude":75.51331541468795},{"district":"Jalaun","state":"Uttar Pradesh","latitude":26.105966841653032,"longitude":79.44439607748063},{"district":"Jalgaon","state":"Maharashtra","latitude":20.84230943068102,"longitude":75.58002834645148},{"district":"Jalna","state":"Maharashtra","latitude":19.96155571508068,"longitude":76.06141306798648},{"district":"Jalor","state":"Rajasthan","latitude":25.20809895760529,"longitude":72.1424177626139},{"district":"Jalpaiguri","state":"West Bengal","latitude":26.62921184641946,"longitude":89.13985988236195},{"district":"Jammu","state":"Jammu & Kashmir","latitude":32.750984440850026,"longitude":74.80608249423841},{"district":"Jamnagar","state":"Gujarat","latitude":22.330634244289488,"longitude":69.79898897698855},{"district":"Jamtara","state":"Jharkhand","latitude":23.98262777861502,"longitude":86.88531291630011},{"district":"Jamui","state":"Bihar","latitude":24.756491852506112,"longitude":86.22250401697417},{"district":"Janjgir-champa","state":"Chhattisgarh","latitude":21.968614399157786,"longitude":82.8148877610989},{"district":"Jashpur","state":"Chhattisgarh","latitude":22.76854754312718,"longitude":83.89947002124839},{"district":"Jaunpur","state":"Uttar Pradesh","latitude":25.794323499243887,"longitude":82.60587735272577},{"district":"Jhabua","state":"Madhya Pradesh","latitude":22.813444654480605,"longitude":74.58634822006725},{"district":"Jhajjar","state":"Haryana","latitude":28.61040186040516,"longitude":76.62445410865226},{"district":"Jhalawar","state":"Rajasthan","latitude":24.314494692545566,"longitude":76.20313133348553},{"district":"Jhansi","state":"Uttar Pradesh","latitude":25.528014190421498,"longitude":78.86094033456855},{"district":"Jharsuguda","state":"Odisha","latitude":21.80165347425951,"longitude":83.91010346646037},{"district":"Jhunjhunun","state":"Rajasthan","latitude":28.08013608552266,"longitude":75.56427849796887},{"district":"Jodhpur","state":"Rajasthan","latitude":26.7356590747749,"longitude":72.8308840665122},{"district":"Jorhat","state":"Assam","latitude":26.765063125831993,"longitude":94.21384408127153},{"district":"Junagadh","state":"Gujarat","latitude":21.202900870144916,"longitude":70.58352917861637},{"district":"Jyotiba Phule Nagar","state":"Uttar Pradesh","latitude":28.74324898763477,"longitude":78.35652367256394},{"district":"Kachchh","state":"Gujarat","latitude":23.707247598426456,"longitude":69.9514170983571},{"district":"Kaimur (bhabua)","state":"Bihar","latitude":24.974649146961177,"longitude":83.61235720500409},{"district":"Kaithal","state":"Haryana","latitude":29.85655668608578,"longitude":76.35070076281283},{"district":"Kalahandi","state":"Odisha","latitude":19.819021755371296,"longitude":83.15966915264178},{"district":"Kamrup","state":"Assam","latitude":26.147664905747835,"longitude":91.3816952153402},{"district":"Kamrup Metropolitan","state":"Assam","latitude":26.054989201100234,"longitude":91.81663611548763},{"district":"Kancheepuram","state":"Tamil Nadu","latitude":12.685651499296966,"longitude":79.91646742474546},{"district":"Kandhamal","state":"Odisha","latitude":20.133008834295715,"longitude":84.04166316154371},{"district":"Kangra","state":"Himachal Pradesh","latitude":32.07841482763842,"longitude":76.33720326315824},{"district":"Uttar Bastar Kanker","state":"Chhattisgarh","latitude":20.120998751421624,"longitude":81.10928452115762},{"district":"Kannauj","state":"Uttar Pradesh","latitude":26.9976417000616,"longitude":79.66986025979753},{"district":"Kanniyakumari","state":"Tamil Nadu","latitude":8.32861314060246,"longitude":77.34558014065072},{"district":"Kannur","state":"Kerala","latitude":11.987300857449451,"longitude":75.55430028295892},{"district":"Kanpur Dehat","state":"Uttar Pradesh","latitude":26.47139559473356,"longitude":79.83985531200835},{"district":"Kanpur Nagar","state":"Uttar Pradesh","latitude":26.438988241590195,"longitude":80.25396699232707},{"district":"Kansiram Nagar","state":"Uttar Pradesh","latitude":27.796632647705522,"longitude":78.84362388340975},{"district":"Kapurthala","state":"Punjab","latitude":31.38563345345834,"longitude":75.42997877246891},{"district":"Karbi Anglong","state":"Assam","latitude":26.070155810454807,"longitude":93.0244283400466},{"district":"Kargil","state":"Jammu & Kashmir","latitude":33.8782353638847,"longitude":76.44407506727603},{"district":"Karimganj","state":"Assam","latitude":24.58194249679572,"longitude":92.40095174026453},{"district":"Karimnagar","state":"Andhra Pradesh","latitude":18.526317140475303,"longitude":79.43327840059192},{"district":"Karnal","state":"Haryana","latitude":29.69512686487822,"longitude":76.83857767650134},{"district":"Karur","state":"Tamil Nadu","latitude":10.82007651963847,"longitude":78.16845924593909},{"district":"Kasaragod","state":"Kerala","latitude":12.427926007963636,"longitude":75.14800488085908},{"district":"Kathua","state":"Jammu & Kashmir","latitude":32.56467308904731,"longitude":75.56683538014545},{"district":"Katihar","state":"Bihar","latitude":25.54071997120218,"longitude":87.64182516499434},{"district":"Katni","state":"Madhya Pradesh","latitude":23.72087477314856,"longitude":80.38898917699433},{"district":"Kaushambi","state":"Uttar Pradesh","latitude":25.534387806701872,"longitude":81.48635248070894},{"district":"Kendrapara","state":"Odisha","latitude":20.549752543064354,"longitude":86.67337360120288},{"district":"Kendujhar","state":"Odisha","latitude":21.588118830781163,"longitude":85.78116279084904},{"district":"Khagaria","state":"Bihar","latitude":25.491468742048426,"longitude":86.57051768535212},{"district":"Khammam","state":"Andhra Pradesh","latitude":17.70213582799588,"longitude":80.797933760058},{"district":"Kheda","state":"Gujarat","latitude":22.893757428695302,"longitude":73.04205704177379},{"district":"Kheri","state":"Uttar Pradesh","latitude":28.18225854717825,"longitude":80.66687408902288},{"district":"Khordha","state":"Odisha","latitude":20.054700585141553,"longitude":85.5094754833354},{"district":"Khunti","state":"Jharkhand","latitude":22.924059502705,"longitude":85.28099941139084},{"district":"Kinnaur","state":"Himachal Pradesh","latitude":31.59393100655638,"longitude":78.38133008765871},{"district":"Kiphire","state":"Nagaland","latitude":25.81078802503967,"longitude":94.8133731097119},{"district":"Kishanganj","state":"Bihar","latitude":26.24426693045232,"longitude":87.95201606498173},{"district":"Kishtwar","state":"Jammu & Kashmir","latitude":33.60958244462518,"longitude":76.13390453199227},{"district":"Koch Bihar","state":"West Bengal","latitude":26.239756540639924,"longitude":89.25257838038893},{"district":"Kodagu","state":"Karnataka","latitude":12.38123944192087,"longitude":75.77850561649271},{"district":"Kodarma","state":"Jharkhand","latitude":24.459358548304934,"longitude":85.49766289993244},{"district":"Kohima","state":"Nagaland","latitude":25.771464968496097,"longitude":94.13983843489004},{"district":"Kokrajhar","state":"Assam","latitude":26.515215228494675,"longitude":90.13270165942508},{"district":"Kolar","state":"Karnataka","latitude":13.179501362714463,"longitude":78.21488076042753},{"district":"Kolasib","state":"Mizoram","latitude":24.235936828459472,"longitude":92.71592499882797},{"district":"Kolhapur","state":"Maharashtra","latitude":16.460750691936507,"longitude":74.19525047973126},{"district":"Kolkata","state":"West Bengal","latitude":22.565844083449996,"longitude":88.34250063649529},{"district":"Kollam","state":"Kerala","latitude":8.966023926208695,"longitude":76.87230781444184},{"district":"Koppal","state":"Karnataka","latitude":15.573548518829778,"longitude":76.29302276859231},{"district":"Koraput","state":"Odisha","latitude":18.73831192609444,"longitude":82.75435038742609},{"district":"Korba","state":"Chhattisgarh","latitude":22.517263654904994,"longitude":82.63245432673683},{"district":"Koriya","state":"Chhattisgarh","latitude":23.43047839816522,"longitude":82.16853912846827},{"district":"Kota","state":"Rajasthan","latitude":25.191238195811124,"longitude":76.10340805328505},{"district":"Kottayam","state":"Kerala","latitude":9.628865314823248,"longitude":76.6765910729065},{"district":"Kozhikode","state":"Kerala","latitude":11.463827200246245,"longitude":75.84082218802368},{"district":"Krishna","state":"Andhra Pradesh","latitude":16.42591858869823,"longitude":80.77774134711393},{"district":"Krishnagiri","state":"Tamil Nadu","latitude":12.515223238853965,"longitude":78.07281262851427},{"district":"Kulgam","state":"Jammu & Kashmir","latitude":33.63978218426495,"longitude":74.83765748493103},{"district":"Kullu","state":"Himachal Pradesh","latitude":31.87876246785475,"longitude":77.40387795917346},{"district":"Kupwara","state":"Jammu & Kashmir","latitude":34.57706451562677,"longitude":74.25586882931333},{"district":"Kurnool","state":"Andhra Pradesh","latitude":15.53326386035267,"longitude":77.95366653818218},{"district":"Kurukshetra","state":"Haryana","latitude":30.053253597230388,"longitude":76.7743201558465},{"district":"Kurung Kumey","state":"Arunanchal Pradesh","latitude":27.990597064157843,"longitude":93.34249407590346},{"district":"Kushinagar","state":"Uttar Pradesh","latitude":26.922646643898165,"longitude":83.97599438304309},{"district":"Lahul & Spiti","state":"Himachal Pradesh","latitude":32.500889176468455,"longitude":77.52156488181802},{"district":"Lakhimpur","state":"Assam","latitude":27.171526905872298,"longitude":94.14148494475299},{"district":"Lakhisarai","state":"Bihar","latitude":25.153640469089762,"longitude":86.14342017982722},{"district":"Lalitpur","state":"Uttar Pradesh","latitude":24.69848671295283,"longitude":78.58208454681372},{"district":"Latehar","state":"Jharkhand","latitude":23.686258800303214,"longitude":84.46932556916951},{"district":"Latur","state":"Maharashtra","latitude":18.352967524630223,"longitude":76.74841475590307},{"district":"Lawangtlai","state":"Mizoram","latitude":22.369774051448793,"longitude":92.73770442827998},{"district":"Leh (ladakh)","state":"Jammu & Kashmir","latitude":34.16656239122345,"longitude":78.35187534640426},{"district":"Lohardaga","state":"Jharkhand","latitude":23.478015322242292,"longitude":84.67045025674125},{"district":"Lohit","state":"Arunanchal Pradesh","latitude":27.959163481196356,"longitude":96.23148583608281},{"district":"Longleng","state":"Nagaland","latitude":26.583543278586347,"longitude":94.7960421562212},{"district":"Lower Dibang Valley","state":"Arunanchal Pradesh","latitude":28.339321740086294,"longitude":95.87924807259071},{"district":"Lower Subansiri","state":"Arunanchal Pradesh","latitude":27.646102949429988,"longitude":93.93867144941117},{"district":"Lucknow","state":"Uttar Pradesh","latitude":26.830237853786553,"longitude":80.88974551697797},{"district":"Ludhiana","state":"Punjab","latitude":30.789596140544973,"longitude":75.86515532426586},{"district":"Lunglei","state":"Mizoram","latitude":22.951002063651135,"longitude":92.76171595241125},{"district":"Madhepura","state":"Bihar","latitude":25.781933933104057,"longitude":86.8625911437495},{"district":"Madhubani","state":"Bihar","latitude":26.355387671408295,"longitude":86.23883259386137},{"district":"Madurai","state":"Tamil Nadu","latitude":9.935826400943139,"longitude":77.96802083559766},{"district":"Maharajganj","state":"Uttar Pradesh","latitude":27.179299830410237,"longitude":83.52962825330968},{"district":"Mahasamund","state":"Chhattisgarh","latitude":21.187517944503792,"longitude":82.6388551329133},{"district":"Mahbubnagar","state":"Andhra Pradesh","latitude":16.53496873293505,"longitude":78.23837351601823},{"district":"Mahe","state":"Puducherry","latitude":11.726025096032167,"longitude":75.54354039173825},{"district":"Mahendragarh","state":"Haryana","latitude":28.135148826745116,"longitude":76.13427357180319},{"district":"Mahesana","state":"Gujarat","latitude":23.566799374981542,"longitude":72.4029600188834},{"district":"Mahoba","state":"Uttar Pradesh","latitude":25.3365176021938,"longitude":79.71362593819057},{"district":"Mainpuri","state":"Uttar Pradesh","latitude":27.1999495245868,"longitude":79.07680926446986},{"district":"Malappuram","state":"Kerala","latitude":11.105595506514,"longitude":76.18941356615603},{"district":"Maldah","state":"West Bengal","latitude":25.097908945946436,"longitude":88.11554096336278},{"district":"Malkangiri","state":"Odisha","latitude":18.274868969861622,"longitude":81.91939253106486},{"district":"Mamit","state":"Mizoram","latitude":23.75650942388439,"longitude":92.46708910043242},{"district":"Mandi","state":"Himachal Pradesh","latitude":31.651535650437772,"longitude":77.0060606633042},{"district":"Mandla","state":"Madhya Pradesh","latitude":22.688167952705946,"longitude":80.57433779761189},{"district":"Mandsaur","state":"Madhya Pradesh","latitude":24.261105184189265,"longitude":75.40426039742158},{"district":"Mandya","state":"Karnataka","latitude":12.636326109545504,"longitude":76.83264888574809},{"district":"Mansa","state":"Punjab","latitude":29.876939336595647,"longitude":75.4721499257572},{"district":"Marigaon","state":"Assam","latitude":26.288918223781856,"longitude":92.25711358470984},{"district":"Mathura","state":"Uttar Pradesh","latitude":27.598986439618706,"longitude":77.6175747543356},{"district":"Mau","state":"Uttar Pradesh","latitude":26.037991828989114,"longitude":83.56211214588268},{"district":"Mayurbhanj","state":"Odisha","latitude":21.916179079258278,"longitude":86.4241836420936},{"district":"Medak","state":"Andhra Pradesh","latitude":17.852375087794133,"longitude":78.28955262870275},{"district":"Meerut","state":"Uttar Pradesh","latitude":28.999231460912746,"longitude":77.78746939642247},{"district":"Mewat","state":"Haryana","latitude":27.992424828701168,"longitude":77.09656674064587},{"district":"Mirzapur","state":"Uttar Pradesh","latitude":24.93499343055328,"longitude":82.63400172840879},{"district":"Moga","state":"Punjab","latitude":30.792478055489283,"longitude":75.16249554822662},{"district":"Mokokchung","state":"Nagaland","latitude":26.477967296165616,"longitude":94.526387558393},{"district":"Mon","state":"Nagaland","latitude":26.735562827145493,"longitude":95.0139278158035},{"district":"Moradabad","state":"Uttar Pradesh","latitude":28.807910484301935,"longitude":78.69545370451647},{"district":"Morena","state":"Madhya Pradesh","latitude":26.38522669389677,"longitude":77.82979017221261},{"district":"Muktsar","state":"Punjab","latitude":30.285401654782955,"longitude":74.5370347859776},{"district":"Mumbai","state":"Maharashtra","latitude":18.950038597674375,"longitude":72.85099775178624},{"district":"Mumbai Suburban","state":"Maharashtra","latitude":19.123994704559614,"longitude":72.88117024978638},{"district":"Munger","state":"Bihar","latitude":25.222690334098772,"longitude":86.51714719108313},{"district":"Murshidabad","state":"West Bengal","latitude":24.287806630822576,"longitude":88.2805078130787},{"district":"Muzaffarnagar","state":"Uttar Pradesh","latitude":29.44480512531899,"longitude":77.61670561158189},{"district":"Muzaffarpur","state":"Bihar","latitude":26.14735974482035,"longitude":85.31558415169755},{"district":"Mysore","state":"Karnataka","latitude":12.19667890772615,"longitude":76.52309898755767},{"district":"Nabarangapur","state":"Odisha","latitude":19.62713412776627,"longitude":82.35074585879438},{"district":"Nadia","state":"West Bengal","latitude":23.53782816157637,"longitude":88.47049710849808},{"district":"Nagaon","state":"Assam","latitude":26.20562507296372,"longitude":92.86237433196254},{"district":"Nagaur","state":"Rajasthan","latitude":27.05743626210753,"longitude":74.24149678082142},{"district":"Nagpur","state":"Maharashtra","latitude":21.15165226179907,"longitude":78.95609484594286},{"district":"Nainital","state":"Uttarakhand","latitude":29.293736594395078,"longitude":79.41061110023301},{"district":"Nalanda","state":"Bihar","latitude":25.213528222755613,"longitude":85.54541358032651},{"district":"Nalbari","state":"Assam","latitude":26.35894435504349,"longitude":91.39400503175474},{"district":"Nalgonda","state":"Andhra Pradesh","latitude":17.0894231158522,"longitude":79.34613337230405},{"district":"Namakkal","state":"Tamil Nadu","latitude":11.302246439030652,"longitude":78.08510532234138},{"district":"Nanded","state":"Maharashtra","latitude":19.096452790601127,"longitude":77.65321794368282},{"district":"Nandurbar","state":"Maharashtra","latitude":21.512886758417174,"longitude":74.17685688993163},{"district":"Narayanpur","state":"Chhattisgarh","latitude":19.65991889130086,"longitude":81.08948505068054},{"district":"Narmada","state":"Gujarat","latitude":21.738330564506917,"longitude":73.64309985380899},{"district":"Narsimhapur","state":"Madhya Pradesh","latitude":22.933874860054654,"longitude":79.04120973918407},{"district":"Nashik","state":"Maharashtra","latitude":20.22566997853889,"longitude":74.09385340709139},{"district":"Navsari","state":"Gujarat","latitude":20.828026114878885,"longitude":73.09842896993202},{"district":"Nawada","state":"Bihar","latitude":24.81890711621019,"longitude":85.66376859144103},{"district":"Nayagarh","state":"Odisha","latitude":20.239101998839146,"longitude":84.97136302829381},{"district":"Neemuch","state":"Madhya Pradesh","latitude":24.646433062726302,"longitude":75.1621943989649},{"district":"Sri Potti Sriramulu Nellore","state":"Andhra Pradesh","latitude":14.292474863366582,"longitude":79.67067746006036},{"district":"New Delhi","state":"NCT of Delhi","latitude":28.6090023244136,"longitude":77.21841602878618},{"district":"Nizamabad","state":"Andhra Pradesh","latitude":18.540361968030332,"longitude":78.10107189441268},{"district":"North","state":"NCT of Delhi","latitude":28.717146025329633,"longitude":77.20946170287795},{"district":"North","state":"Sikkim","latitude":27.75437749673206,"longitude":88.50548190756524},{"district":"North 24 Parganas","state":"West Bengal","latitude":22.4011794779023,"longitude":88.71549434480018},{"district":"Dima Hasao","state":"Assam","latitude":25.395325064962712,"longitude":93.00155364766385},{"district":"North East","state":"NCT of Delhi","latitude":28.722981714731915,"longitude":77.27552227710844},{"district":"North Goa","state":"Goa","latitude":15.534903450217023,"longitude":73.97829219267706},{"district":"North Tripura","state":"Tripura","latitude":24.09018886421759,"longitude":92.12484933811207},{"district":"North West","state":"NCT of Delhi","latitude":28.77382441736198,"longitude":77.08751995945288},{"district":"Nuapada","state":"Odisha","latitude":20.54037909982594,"longitude":82.59710980812439},{"district":"Osmanabad","state":"Maharashtra","latitude":18.17028733234635,"longitude":76.03767413023132},{"district":"Pakur","state":"Jharkhand","latitude":24.531985860769453,"longitude":87.6541779778691},{"district":"Palakkad","state":"Kerala","latitude":10.786871325015099,"longitude":76.46807412545175},{"district":"Palamu","state":"Jharkhand","latitude":24.214531690237234,"longitude":84.20079243023375},{"district":"Pali","state":"Rajasthan","latitude":25.609190609791664,"longitude":73.58983908299442},{"district":"Palwal","state":"Haryana","latitude":28.058663005960966,"longitude":77.31053958266119},{"district":"Panch Mahals","state":"Gujarat","latitude":22.87075569777921,"longitude":73.68718928490037},{"district":"Panchkula","state":"Haryana","latitude":30.69989911767339,"longitude":76.97584708681892},{"district":"Panipat","state":"Haryana","latitude":29.326948052952954,"longitude":76.90026271447215},{"district":"Panna","state":"Madhya Pradesh","latitude":24.472547943376938,"longitude":80.20758637315802},{"district":"Papum Pare","state":"Arunanchal Pradesh","latitude":27.30249193513032,"longitude":93.71889010148368},{"district":"Parbhani","state":"Maharashtra","latitude":19.307986111401828,"longitude":76.66495456004617},{"district":"Pashchim Champaran","state":"Bihar","latitude":27.052081400974732,"longitude":84.29907222227051},{"district":"Pashchim Medinipur","state":"West Bengal","latitude":22.358716928789256,"longitude":87.22652559188323},{"district":"Pashchimi Singhbhum","state":"Jharkhand","latitude":22.42786825421393,"longitude":85.51763316317805},{"district":"Patan","state":"Gujarat","latitude":23.77085188939857,"longitude":71.75599838862536},{"district":"Pathanamthitta","state":"Kerala","latitude":9.280377756267411,"longitude":76.88051608120773},{"district":"Patiala","state":"Punjab","latitude":30.235306700021866,"longitude":76.36812488083706},{"district":"Patna","state":"Bihar","latitude":25.466477038994377,"longitude":85.37683383169347},{"district":"Perambalur","state":"Tamil Nadu","latitude":11.285749111895196,"longitude":78.90135610565817},{"district":"Peren","state":"Nagaland","latitude":25.448596370256077,"longitude":93.63999541677721},{"district":"Phek","state":"Nagaland","latitude":25.68631222926637,"longitude":94.54625141108895},{"district":"Pilibhit","state":"Uttar Pradesh","latitude":28.501204019323744,"longitude":80.01670966736398},{"district":"Pithoragarh","state":"Uttarakhand","latitude":30.125225818525475,"longitude":80.43247480171925},{"district":"Porbandar","state":"Gujarat","latitude":21.602152074164096,"longitude":69.76099017543382},{"district":"Prakasam","state":"Andhra Pradesh","latitude":15.635987127847443,"longitude":79.61227334920454},{"district":"Pratapgarh","state":"Rajasthan","latitude":24.019449333333995,"longitude":74.6448749557192},{"district":"Pratapgarh","state":"Uttar Pradesh","latitude":25.87309762325736,"longitude":81.88225198492185},{"district":"Pudukkottai","state":"Tamil Nadu","latitude":10.289214239969153,"longitude":78.8567481305585},{"district":"Pulwama","state":"Jammu & Kashmir","latitude":33.93076664878854,"longitude":74.98732304681468},{"district":"Punch","state":"Jammu & Kashmir","latitude":33.69253504871694,"longitude":74.21751066348807},{"district":"Pune","state":"Maharashtra","latitude":18.643496673533527,"longitude":74.24306435806669},{"district":"Purba Champaran","state":"Bihar","latitude":26.637911254980324,"longitude":84.89257709741207},{"district":"Purba Medinipur","state":"West Bengal","latitude":22.058401652074593,"longitude":87.81094436468257},{"district":"Purbi Singhbhum","state":"Jharkhand","latitude":22.614011182886856,"longitude":86.48056643081053},{"district":"Puri","state":"Odisha","latitude":19.82973632408435,"longitude":85.75738157292153},{"district":"Purnia","state":"Bihar","latitude":25.779462204861158,"longitude":87.42881122484266},{"district":"Puruliya","state":"West Bengal","latitude":23.201948923887617,"longitude":86.36599232755145},{"district":"Rae Bareli","state":"Uttar Pradesh","latitude":26.207441496246002,"longitude":81.14779577982141},{"district":"Raichur","state":"Karnataka","latitude":16.053715942552053,"longitude":76.91623989897965},{"district":"Raigarh","state":"Chhattisgarh","latitude":22.066545352485107,"longitude":83.36587505482902},{"district":"Raigarh","state":"Maharashtra","latitude":18.492613382889925,"longitude":73.25350664124366},{"district":"Raipur","state":"Chhattisgarh","latitude":20.830109858525905,"longitude":82.25963751756885},{"district":"Raisen","state":"Madhya Pradesh","latitude":23.26746609313018,"longitude":78.08822916296603},{"district":"Rajouri","state":"Jammu & Kashmir","latitude":33.31712459714117,"longitude":74.39655312158837},{"district":"Rajgarh","state":"Madhya Pradesh","latitude":23.86820377707415,"longitude":76.71585165827584},{"district":"Rajkot","state":"Gujarat","latitude":22.35057377283756,"longitude":70.7678869289615},{"district":"Rajnandgaon","state":"Chhattisgarh","latitude":20.971093789326126,"longitude":80.80357259314877},{"district":"Rajsamand","state":"Rajasthan","latitude":25.378830851654946,"longitude":73.94589735900558},{"district":"Ramanagara","state":"Karnataka","latitude":12.719589808083832,"longitude":77.35341205729316},{"district":"Ramanathapuram","state":"Tamil Nadu","latitude":9.519595521275775,"longitude":78.7036065148518},{"district":"Ramban","state":"Jammu & Kashmir","latitude":33.3388070812683,"longitude":75.21345958458551},{"district":"Ramgarh","state":"Jharkhand","latitude":23.679344509190237,"longitude":85.54675505901085},{"district":"Rampur","state":"Uttar Pradesh","latitude":28.775487293976553,"longitude":79.12650170685818},{"district":"Ranchi","state":"Jharkhand","latitude":23.299543618174745,"longitude":85.38565554891412},{"district":"Rangareddy","state":"Andhra Pradesh","latitude":17.27988772752733,"longitude":78.10963877316829},{"district":"Ratlam","state":"Madhya Pradesh","latitude":23.502213492719143,"longitude":75.10388201312165},{"district":"Ratnagiri","state":"Maharashtra","latitude":17.28170317463741,"longitude":73.44723205305112},{"district":"Rayagada","state":"Odisha","latitude":19.44113896078583,"longitude":83.45555578290117},{"district":"Reasi","state":"Jammu & Kashmir","latitude":33.197588989806164,"longitude":74.79643157133748},{"district":"Rewa","state":"Madhya Pradesh","latitude":24.756633658909337,"longitude":81.67687543471331},{"district":"Rewari","state":"Haryana","latitude":28.216871014855222,"longitude":76.57385483894689},{"district":"Ri Bhoi","state":"Meghalaya","latitude":25.878288546146536,"longitude":91.82417628322813},{"district":"Rohtak","state":"Haryana","latitude":28.89277186244785,"longitude":76.55725276662714},{"district":"Rohtas","state":"Bihar","latitude":24.93896956348958,"longitude":83.98338906271954},{"district":"Rudraprayag","state":"Uttarakhand","latitude":30.511812627137033,"longitude":79.0867388900654},{"district":"Rupnagar","state":"Punjab","latitude":31.092242780074656,"longitude":76.51515086226478},{"district":"Sabar Kantha","state":"Gujarat","latitude":23.776691663299253,"longitude":73.1916823526791},{"district":"Sagar","state":"Madhya Pradesh","latitude":23.809400591547575,"longitude":78.70554061644117},{"district":"Saharanpur","state":"Uttar Pradesh","latitude":29.984314746839402,"longitude":77.53463034511478},{"district":"Saharsa","state":"Bihar","latitude":25.837113449286,"longitude":86.5939250283109},{"district":"Sahibganj","state":"Jharkhand","latitude":25.0333082070657,"longitude":87.7167429663022},{"district":"Sahibzada Ajit Singh Nagar","state":"Punjab","latitude":30.646563185110622,"longitude":76.7297878111444},{"district":"Saiha","state":"Mizoram","latitude":22.375263624155203,"longitude":93.01518806095473},{"district":"Salem","state":"Tamil Nadu","latitude":11.64449935486071,"longitude":78.24716705113161},{"district":"Samastipur","state":"Bihar","latitude":25.776850023770898,"longitude":85.9750287657255},{"district":"Samba","state":"Jammu & Kashmir","latitude":32.586370892049615,"longitude":75.10155754803765},{"district":"Sambalpur","state":"Odisha","latitude":21.55620463229903,"longitude":84.28613615748876},{"district":"Sangli","state":"Maharashtra","latitude":17.171736825250782,"longitude":74.68650842856069},{"district":"Sangrur","state":"Punjab","latitude":30.20787421054741,"longitude":75.88136037470252},{"district":"Sant Kabir Nagar","state":"Uttar Pradesh","latitude":26.757991539210234,"longitude":83.03205604354179},{"district":"Sant Ravi Das Nagar(bhadohi)","state":"Uttar Pradesh","latitude":25.358287221193734,"longitude":82.45292662107875},{"district":"Saraikela-kharsawan","state":"Jharkhand","latitude":22.818378715573516,"longitude":85.88055240316613},{"district":"Saran (chhapra)","state":"Bihar","latitude":25.922467741583297,"longitude":84.80666350057},{"district":"Satara","state":"Maharashtra","latitude":17.637165053201212,"longitude":74.22015672647063},{"district":"Satna","state":"Madhya Pradesh","latitude":24.578275985840982,"longitude":80.87296341163906},{"district":"Sehore","state":"Madhya Pradesh","latitude":23.122718763103585,"longitude":77.2401078749367},{"district":"Senapati","state":"Manipur","latitude":25.103621013057946,"longitude":94.07903763700831},{"district":"Seoni","state":"Madhya Pradesh","latitude":22.27207527347839,"longitude":79.74532940268588},{"district":"Serchhip","state":"Mizoram","latitude":23.26298236321456,"longitude":92.94039073903274},{"district":"Shahdol","state":"Madhya Pradesh","latitude":23.65177733011133,"longitude":81.49197442767633},{"district":"Shahid Bhagat Singh Nagar","state":"Punjab","latitude":31.12716894613306,"longitude":76.15248934681142},{"district":"Shahjahanpur","state":"Uttar Pradesh","latitude":27.96417702251801,"longitude":79.85132047936084},{"district":"Shajapur","state":"Madhya Pradesh","latitude":23.716292344151274,"longitude":76.36895878012103},{"district":"Sheikhpura","state":"Bihar","latitude":25.125308329745003,"longitude":85.79649742998402},{"district":"Sheohar","state":"Bihar","latitude":26.52216320421673,"longitude":85.28484216778698},{"district":"Sheopur","state":"Madhya Pradesh","latitude":25.745054365695694,"longitude":77.07560167803996},{"district":"Shimla","state":"Himachal Pradesh","latitude":31.23943692991452,"longitude":77.6530354717394},{"district":"Shimoga","state":"Karnataka","latitude":14.056517074813907,"longitude":75.25326788649039},{"district":"Shivpuri","state":"Madhya Pradesh","latitude":25.375628753679536,"longitude":77.74011049796891},{"district":"Shrawasti","state":"Uttar Pradesh","latitude":27.607458300735935,"longitude":81.9164452185463},{"district":"Shupiyan","state":"Jammu & Kashmir","latitude":33.72913802934684,"longitude":74.790894198866},{"district":"Sivasagar","state":"Assam","latitude":26.994067743858565,"longitude":94.88780872030699},{"district":"Siddharth Nagar","state":"Uttar Pradesh","latitude":27.261137501617664,"longitude":82.86640391056048},{"district":"Sidhi","state":"Madhya Pradesh","latitude":24.21363015667773,"longitude":81.84266227942736},{"district":"Sikar","state":"Rajasthan","latitude":27.662047439476858,"longitude":75.38925426923475},{"district":"Simdega","state":"Jharkhand","latitude":22.587567847176473,"longitude":84.54384169651408},{"district":"Sindhudurg","state":"Maharashtra","latitude":16.134732406252695,"longitude":73.76219685355863},{"district":"Singrauli","state":"Madhya Pradesh","latitude":24.24357201289533,"longitude":82.34633533099947},{"district":"Sirmaur","state":"Himachal Pradesh","latitude":30.700937755583052,"longitude":77.42191399419002},{"district":"Sirohi","state":"Rajasthan","latitude":24.8068275726239,"longitude":72.70438389788828},{"district":"Sirsa","state":"Haryana","latitude":29.60803315447403,"longitude":74.8883176335668},{"district":"Sitamarhi","state":"Bihar","latitude":26.572194274701374,"longitude":85.53365033921249},{"district":"Sitapur","state":"Uttar Pradesh","latitude":27.50262506194361,"longitude":80.86125105293884},{"district":"Sivaganga","state":"Tamil Nadu","latitude":9.96287974305006,"longitude":78.57035735323021},{"district":"Siwan","state":"Bihar","latitude":26.13099337824245,"longitude":84.39688590591847},{"district":"Solan","state":"Himachal Pradesh","latitude":31.057275206810758,"longitude":76.92756851743935},{"district":"Solapur","state":"Maharashtra","latitude":17.83415707138596,"longitude":75.51917213944117},{"district":"Subarnapur","state":"Odisha","latitude":20.853181506480333,"longitude":83.86652295071029},{"district":"Sonbhadra","state":"Uttar Pradesh","latitude":24.388678214926987,"longitude":83.03810926350138},{"district":"Sonipat","state":"Haryana","latitude":29.051340538509766,"longitude":76.85391358513864},{"district":"Sonitpur","state":"Assam","latitude":26.766114312808014,"longitude":93.05927320938912},{"district":"South","state":"NCT of Delhi","latitude":28.505488151586697,"longitude":77.22942626930072},{"district":"South","state":"Sikkim","latitude":27.30455555504065,"longitude":88.40394922742465},{"district":"South 24 Parganas","state":"West Bengal","latitude":22.082518935243044,"longitude":88.419427638093},{"district":"South Garo Hills","state":"Meghalaya","latitude":25.34855315284465,"longitude":90.60256893201603},{"district":"South Goa","state":"Goa","latitude":15.12192670175861,"longitude":74.05963975706817},{"district":"South Tripura","state":"Tripura","latitude":23.35368804716125,"longitude":91.59091835637437},{"district":"South West","state":"NCT of Delhi","latitude":28.576364479245896,"longitude":77.02824194316389},{"district":"Srikakulam","state":"Andhra Pradesh","latitude":18.624143728271605,"longitude":84.09138685994215},{"district":"Srinagar","state":"Jammu & Kashmir","latitude":34.16284364621313,"longitude":74.92973302910147},{"district":"Sultanpur","state":"Uttar Pradesh","latitude":26.318171276878928,"longitude":82.11527398729982},{"district":"Sundargarh","state":"Odisha","latitude":22.059835450500827,"longitude":84.45842747812833},{"district":"Supaul","state":"Bihar","latitude":26.27982589464975,"longitude":86.75464915650474},{"district":"Surat","state":"Gujarat","latitude":21.189603467857793,"longitude":73.13956386961924},{"district":"Surendranagar","state":"Gujarat","latitude":22.827019821596313,"longitude":71.56671442880182},{"district":"Surguja","state":"Chhattisgarh","latitude":23.366049796968618,"longitude":83.2881962681564},{"district":"Tamenglong","state":"Manipur","latitude":24.977495554722964,"longitude":93.55175736915362},{"district":"Tarn Taran","state":"Punjab","latitude":31.327772574361607,"longitude":74.89659169758866},{"district":"Tawang","state":"Arunanchal Pradesh","latitude":27.661342527536505,"longitude":92.01251485380381},{"district":"Tehri Garhwal","state":"Uttarakhand","latitude":30.466118237871548,"longitude":78.48653084698859},{"district":"Thane","state":"Maharashtra","latitude":19.60694444913716,"longitude":73.22047934311854},{"district":"Thanjavur","state":"Tamil Nadu","latitude":10.660408160781625,"longitude":79.17607368166364},{"district":"The Dangs","state":"Gujarat","latitude":20.822793986109893,"longitude":73.70500741126878},{"district":"The Nilgiris","state":"Tamil Nadu","latitude":11.446300550374879,"longitude":76.62455947780234},{"district":"Theni","state":"Tamil Nadu","latitude":9.8665802377884,"longitude":77.44838250311386},{"district":"Thiruvallur","state":"Tamil Nadu","latitude":13.254798818217537,"longitude":79.8160303376937},{"district":"Thiruvananthapuram","state":"Kerala","latitude":8.575451804813488,"longitude":76.97818558526238},{"district":"Thiruvarur","state":"Tamil Nadu","latitude":10.64436792326893,"longitude":79.5250862682443},{"district":"Thoothukkudi","state":"Tamil Nadu","latitude":8.8461922417403,"longitude":78.03243018633418},{"district":"Thoubal","state":"Manipur","latitude":24.481663387429926,"longitude":93.99631754132834},{"district":"Thrissur","state":"Kerala","latitude":10.478685880080391,"longitude":76.42972133393658},{"district":"Tikamgarh","state":"Madhya Pradesh","latitude":24.997163023956837,"longitude":78.89183003213105},{"district":"Tinsukia","state":"Assam","latitude":27.597597422076163,"longitude":95.6214326283588},{"district":"Tirap","state":"Arunanchal Pradesh","latitude":26.956910174815818,"longitude":95.44108031292774},{"district":"Tiruchirappalli","state":"Tamil Nadu","latitude":10.848337130752725,"longitude":78.58978478621049},{"district":"Tirunelveli","state":"Tamil Nadu","latitude":8.779551818384922,"longitude":77.5625759590872},{"district":"Tiruppur","state":"Tamil Nadu","latitude":10.789782894477177,"longitude":77.47286180079968},{"district":"Tiruvannamalai","state":"Tamil Nadu","latitude":12.425980032305095,"longitude":79.19503228869925},{"district":"Tonk","state":"Rajasthan","latitude":26.120443133071177,"longitude":75.72044007065966},{"district":"Tuensang","state":"Nagaland","latitude":26.177257529129243,"longitude":94.87465828491867},{"district":"Tumkur","state":"Karnataka","latitude":13.544907233959677,"longitude":76.93189027843462},{"district":"Udaipur","state":"Rajasthan","latitude":24.462009284274025,"longitude":73.7219343634075},{"district":"Udalguri","state":"Assam","latitude":26.707876885739495,"longitude":92.05830688513575},{"district":"Udhampur","state":"Jammu & Kashmir","latitude":32.897351352281206,"longitude":75.3855811911381},{"district":"Udham Singh Nagar","state":"Uttarakhand","latitude":29.04445567976976,"longitude":79.44449954192936},{"district":"Udupi","state":"Karnataka","latitude":13.484283701082827,"longitude":74.89109207945168},{"district":"Ujjain","state":"Madhya Pradesh","latitude":23.294674644742056,"longitude":75.6929518558185},{"district":"Ukhrul","state":"Manipur","latitude":25.08735987154123,"longitude":94.43480772351273},{"district":"Umaria","state":"Madhya Pradesh","latitude":23.643861379019654,"longitude":80.94151496146388},{"district":"Una","state":"Himachal Pradesh","latitude":31.583109507957516,"longitude":76.20783292531145},{"district":"Unnao","state":"Uttar Pradesh","latitude":26.572326903676483,"longitude":80.55132157408461},{"district":"Upper Siang","state":"Arunanchal Pradesh","latitude":28.749931494185745,"longitude":94.80206267349269},{"district":"Upper Subansiri","state":"Arunanchal Pradesh","latitude":28.234733559361644,"longitude":93.89224001616866},{"district":"Uttar Dinajpur","state":"West Bengal","latitude":25.870256862916698,"longitude":88.17148528531402},{"district":"Uttara Kannada","state":"Karnataka","latitude":14.725512705105277,"longitude":74.57848989734231},{"district":"Uttarkashi","state":"Uttarakhand","latitude":30.967895617792664,"longitude":78.57755973744611},{"district":"Vadodara","state":"Gujarat","latitude":22.314401106346814,"longitude":73.57283095691213},{"district":"Vaishali","state":"Bihar","latitude":25.749899267928534,"longitude":85.35398533560809},{"district":"Valsad","state":"Gujarat","latitude":20.431810612244384,"longitude":73.11093395700703},{"district":"Varanasi","state":"Uttar Pradesh","latitude":25.373375202596456,"longitude":82.93293760421172},{"district":"Vellore","state":"Tamil Nadu","latitude":12.733027923606537,"longitude":79.0988341663193},{"district":"Vidisha","state":"Madhya Pradesh","latitude":23.846777224983903,"longitude":77.77926701683371},{"district":"Viluppuram","state":"Tamil Nadu","latitude":11.975863116719154,"longitude":79.31588169767755},{"district":"Virudunagar","state":"Tamil Nadu","latitude":9.43323222218796,"longitude":78.41607515826705},{"district":"Visakhapatnam","state":"Andhra Pradesh","latitude":17.897120975925425,"longitude":82.67872735609053},{"district":"Vizianagaram","state":"Andhra Pradesh","latitude":18.49574279216415,"longitude":83.41189303161167},{"district":"Warangal","state":"Andhra Pradesh","latitude":17.96460939777188,"longitude":79.76372199325004},{"district":"Wardha","state":"Maharashtra","latitude":20.824653529253226,"longitude":78.64010699449148},{"district":"Washim","state":"Maharashtra","latitude":20.303019786704734,"longitude":77.14891031317839},{"district":"Wayanad","state":"Kerala","latitude":11.713072180714109,"longitude":76.11040533481562},{"district":"West","state":"NCT of Delhi","latitude":28.653920471142,"longitude":77.07016549581269},{"district":"West","state":"Sikkim","latitude":27.364588603522087,"longitude":88.18888214601336},{"district":"West Garo Hills","state":"Meghalaya","latitude":25.578033854288307,"longitude":90.13068559296471},{"district":"West Godavari","state":"Andhra Pradesh","latitude":16.90061635338514,"longitude":81.36574511484099},{"district":"West Kameng","state":"Arunanchal Pradesh","latitude":27.335102350102197,"longitude":92.46092181446589},{"district":"West Khasi Hills","state":"Meghalaya","latitude":25.512451190714636,"longitude":91.29178250935279},{"district":"West Nimar","state":"Madhya Pradesh","latitude":21.960568573167272,"longitude":75.72383177594067},{"district":"West Siang","state":"Arunanchal Pradesh","latitude":28.29619592738468,"longitude":94.4629300819779},{"district":"West Tripura","state":"Tripura","latitude":23.753217163124937,"longitude":91.46976214832964},{"district":"Wokha","state":"Nagaland","latitude":26.24017881310347,"longitude":94.17286706072657},{"district":"Yadgir","state":"Karnataka","latitude":16.57075968848678,"longitude":76.88501219068097},{"district":"Yavatmal","state":"Maharashtra","latitude":20.06388958870953,"longitude":78.21847304286871},{"district":"Zunheboto","state":"Nagaland","latitude":26.023494933979137,"longitude":94.52645529576249},{"district":"Kabeerdham","state":"Chhattisgarh","latitude":22.11294298673318,"longitude":81.19466583725372},{"district":"Yamunanagar","state":"Haryana","latitude":30.21496244291619,"longitude":77.3351665991174},{"district":"Jind","state":"Haryana","latitude":29.450756493899487,"longitude":76.34580949021885},{"district":"Dausa","state":"Rajasthan","latitude":26.804894430552604,"longitude":76.6185538111217},{"district":"Karauli","state":"Rajasthan","latitude":26.516859479778745,"longitude":76.94240007381418},{"district":"Sawai Madhopur","state":"Rajasthan","latitude":26.22863002528286,"longitude":76.48213737982203},{"district":"Arwal","state":"Bihar","latitude":25.180675211828135,"longitude":84.6643191546848},{"district":"Jehanabad","state":"Bihar","latitude":25.15342635511061,"longitude":85.03823643693107},{"district":"Nagappattinam","state":"Tamil Nadu","latitude":10.845977984913816,"longitude":79.69459901342873},{"district":"Karaikal","state":"Puducherry","latitude":10.9155265360534,"longitude":79.78632984913008},{"district":"Puducherry","state":"Puducherry","latitude":11.912198563319844,"longitude":79.73739959822319},{"district":"Yanam","state":"Puducherry","latitude":16.731795627208218,"longitude":82.24826673855713},{"district":"Tapi","state":"Gujarat","latitude":21.18922962475397,"longitude":73.7646933517307},{"district":"Nicobar","state":"Andaman & Nicobar Island","latitude":8.006447414739354,"longitude":93.33321962028519},{"district":"South Andaman","state":"Andaman & Nicobar Island","latitude":11.41477153070209,"longitude":93.0426074964405},{"district":"North & Middle Andaman","state":"Andaman & Nicobar Island","latitude":12.869744905228746,"longitude":93.46191309833955},{"district":"Lakshadweep","state":"Lakshadweep","latitude":10.331629745083093,"longitude":72.92730634533326}]